{"version": 0.6, "generator": "Overpass API 0.7.62.5 1bd436f1", "osm3s": {"timestamp_osm_base": "2025-03-11T11:43:07Z", "copyright": "The data included in this document is from www.openstreetmap.org. The data is made available under ODbL."}, "elements": [{"type": "node", "id": 1684374656, "lat": 46.8298198, "lon": 12.7664431, "tags": {"amenity": "bank", "atm": "yes", "check_date": "2024-08-03", "name": "Lienzer Sparkasse", "operator": "Sparkasse", "wikidata": "Q1824246", "wikipedia": "de:Lienzer Sparkasse"}}, {"type": "node", "id": 2408895675, "lat": 46.8295315, "lon": 12.7695223, "tags": {"amenity": "bank", "atm": "yes", "name": "Hypo Tirol Bank", "opening_hours": "Mo-Fr 08:00-12:30", "wheelchair": "limited"}}, {"type": "node", "id": 2408896735, "lat": 46.8293111, "lon": 12.7706808, "tags": {"amenity": "bank", "atm": "yes", "brand": "Bank Austria", "brand:wikidata": "Q697619", "brand:wikipedia": "en:Bank Austria", "name": "Bank Austria", "opening_hours": "Mo-Fr 08:30-12:30", "wheelchair": "yes"}}, {"type": "node", "id": 2408906849, "lat": 46.8298848, "lon": 12.7669941, "tags": {"amenity": "bank", "atm": "yes", "name": "Raiffeisen Landesbank Tirol - Lienz", "opening_hours": "Mo-Fr 08:00-12:00,14:00-16:00"}}, {"type": "node", "id": 2408907447, "lat": 46.8301112, "lon": 12.767725, "tags": {"amenity": "bank", "atm": "yes", "name": "Dolomiten Bank Lienz"}}, {"type": "node", "id": 4137894195, "lat": 46.8210304, "lon": 12.758763, "tags": {"amenity": "bank", "atm": "yes", "name": "Sparkasse S\u00fcd", "operator": "Sparkasse", "wheelchair": "yes"}}, {"type": "node", "id": 4533717299, "lat": 46.8302511, "lon": 12.8041556, "tags": {"addr:city": "Nu\u00dfdorf-Debant", "addr:country": "AT", "addr:postcode": "9990", "addr:street": "Florianistra\u00dfe", "amenity": "bank", "atm": "yes", "drive_through": "yes", "name": "Sparkasse Lienz", "operator": "Sparkasse Lienz"}}, {"type": "node", "id": 5672070990, "lat": 46.830439, "lon": 12.767899, "tags": {"amenity": "bank", "atm": "yes", "name": "BTV", "opening_hours": "Mo-Fr 08:00-12:30", "wheelchair": "yes"}}, {"type": "node", "id": 7558411581, "lat": 46.8285941, "lon": 12.7672698, "tags": {"addr:city": "Lienz", "addr:country": "AT", "addr:housenumber": "11", "addr:postcode": "9900", "addr:street": "M\u00fchlgasse", "amenity": "bank", "atm": "yes", "brand": "bank99", "brand:wikidata": "Q91200481", "brand:wikipedia": "de:Bank99", "check_date:opening_hours": "2022-11-02", "drive_through": "no", "name": "bank99", "opening_hours": "Mo-Fr 08:00-18:00; Sa,Su,PH off", "operator": "bank99 AG", "website": "https://www.bank99.at", "wheelchair": "yes"}}]}